# Time (s),Altitude (ft),Position East of launch (ft),Position North of launch (ft),Roll rate (r/s),Pitch rate (r/s),Yaw rate (r/s)
0,0,0,0,0,0,0
0.01,0,0,0,0,0,0
0.02,0,0,0,0,0,0
0.03,0,0,0,0,0,0
0.04,1.6288e-4,0,0,0,0,0
0.05,0.0011597,0,0,0,0,0
0.06,0.0042863,0,0,0,0,0
0.07,0.011311,0,0,0,0,0
0.08,0.024196,0,0,0,0,0
0.09,0.044905,0,0,0,0,0
0.1,0.075403,0,0,0,0,0
0.11,0.11766,0,0,0,0,0
0.12,0.17364,0,0,0,0,0
0.13,0.24547,0,0,0,0,0
0.14,0.33536,0,0,0,0,0
0.15,0.44559,0,0,0,0,0
0.16,0.57843,0,0,0,0,0
0.17,0.73615,0,0,0,0,0
0.18,0.92102,0,0,0,0,0
0.19,1.1353,0,0,0,0,0
0.2,1.3816,0,0,0,0,0
0.21,1.6623,0,0,0,0,0
0.22,1.9801,0,0,0,0,0
0.22973,2.3276,0,0,0,0,0
0.23844,2.6722,0,0,0,0,0
0.24635,3.0145,0,0,0,0,0
0.25363,3.3551,0,0,0,0,0
0.26455,3.9143,-4.5102e-4,0,0,0.0023348,-2.7115e-7
0.28093,4.868,-0.0028986,0,0,0.0066265,4.7362e-7
0.30549,6.5597,-0.010765,0,0,0.01472,-1.8753e-6
0.33622,9.0313,-0.027602,1.6659e-7,0,0.026479,-2.0766e-6
0.36461,11.563,-0.049119,5.0107e-7,0,0.037409,-3.3691e-6
0.39488,14.461,-0.076312,1.0667e-6,0,0.047583,4.9995e-7
0.43262,18.324,-0.11159,2.024e-6,0,0.056262,2.7965e-6
0.48262,23.827,-0.1488,3.4795e-6,0,-0.058236,-1.4235e-5
0.53262,29.735,-0.15896,5.4936e-6,0,-0.048871,-1.9801e-5
0.57039,34.449,-0.13868,7.7626e-6,0,-0.034978,3.1374e-6
0.59547,37.695,-0.10853,8.6086e-6,0,-0.02282,-1.8242e-6
0.61684,40.531,-0.071109,8.8354e-6,0,-0.011319,-1.3569e-5
0.63717,43.289,-0.025152,8.2727e-6,0,-1.3763e-4,-1.0272e-5
0.65753,46.107,0.030902,6.5584e-6,0,0.010747,-1.7245e-5
0.6789,49.126,0.10018,3.2417e-6,-5.8893e-9,0.021435,-2.9975e-5
0.70242,52.519,0.18789,-2.9753e-6,-7.7032e-9,0.031508,-4.0731e-5
0.73227,56.929,0.31409,-1.6055e-5,0,0.039057,-1.1071e-4
0.77705,63.76,0.52463,-4.8e-5,-1.1183e-8,-0.035596,-4.6254e-5
0.81878,70.353,0.73126,-9.0077e-5,0,-0.01877,-2.2383e-5
0.84092,73.94,0.84155,-1.166e-4,-9.2626e-9,-0.0070611,-1.1239e-5
0.86122,77.281,0.94232,-1.4237e-4,-1.3436e-8,0.0040207,-2.604e-5
0.88211,80.772,1.0457,-1.6937e-4,-1.3579e-8,0.01448,-3.9637e-6
0.90621,84.863,1.1654,-2.0046e-4,-1.4741e-8,0.024025,-1.799e-5
0.94102,90.893,1.3423,-2.4447e-4,-1.4346e-8,0.03045,1.2753e-4
0.99102,99.797,1.6152,-3.1852e-4,-2.3624e-8,-0.024939,2.8809e-5
1.0407,108.93,1.9199,-4.4993e-4,-2.4652e-8,-0.0095807,4.5981e-5
1.0707,114.56,2.1224,-5.6818e-4,-2.2203e-8,0.0012527,5.8437e-5
1.1041,120.94,2.3644,-7.2449e-4,-1.2324e-8,0.010002,1.1665e-4
1.1541,130.72,2.7521,-9.5939e-4,-1.1075e-8,-0.010131,4.2395e-5
1.2041,140.75,3.1599,-0.0011318,-4.4327e-8,-0.00139,-2.5565e-5
1.2541,151.03,3.5838,-0.0012142,-1.7782e-8,0.0081022,-1.0006e-4
1.3041,161.53,4.0257,-0.0012236,-2.6002e-8,-0.009854,-1.4546e-4
1.3541,172.26,4.492,-0.0011878,-3.8071e-8,-0.0043218,-4.1815e-5
1.4041,183.2,4.9851,-0.0011865,-3.3014e-8,0.0019986,-1.2279e-4
1.4541,194.34,5.5028,-0.0012731,-3.5514e-8,-0.0036066,-2.1871e-4
1.5041,205.67,6.0397,-0.0013973,-2.3886e-8,0.0023393,-4.0058e-5
1.5541,217.19,6.5924,-0.0015109,0,0.0072463,-2.3055e-4
1.6041,228.88,7.1643,-0.0016038,1.9888e-8,-0.003773,-5.7674e-5
1.6541,240.58,7.7469,-0.0016759,5.8495e-8,0.0015212,9.7077e-6
1.7041,252.07,8.3219,-0.0017334,7.1419e-8,0.0030666,-3.1187e-4
1.7541,263.3,8.8823,-0.0017906,7.2698e-8,-0.0025196,-8.4848e-5
1.8041,274.28,9.4273,-0.0018729,6.7142e-8,0.0020578,-5.1067e-5
1.8541,285,9.9547,-0.0019621,7.5977e-8,0.009603,2.0366e-5
1.9041,295.49,10.466,-0.0020521,8.2594e-8,-0.009519,3.6808e-5
1.9541,305.74,10.968,-0.0021241,3.3442e-8,-1.953e-4,2.9947e-5
2.0041,315.76,11.464,-0.002163,1.7858e-8,0.0062247,3.3822e-5
2.0541,325.56,11.948,-0.0021854,0,-0.0014313,1.6797e-5
2.1041,335.15,12.417,-0.0022102,1.4096e-8,0.0052684,-4.2555e-6
2.1541,344.53,12.872,-0.0022437,1.621e-8,0.007463,-4.973e-4
2.2041,353.7,13.317,-0.0022679,0,-0.0038889,1.9263e-5
2.2541,362.68,13.755,-0.0022718,2.0013e-8,0.0032998,-2.1872e-5
2.3041,371.46,14.188,-0.0022574,9.4531e-9,0.0083382,1.4097e-5
2.3541,380.06,14.614,-0.00224,5.4252e-9,-0.009111,6.1972e-5
2.4041,388.47,15.03,-0.0022143,-8.2216e-9,-0.0057171,2.4241e-5
2.4541,396.71,15.435,-0.0021712,0,0.0037284,-3.2474e-5
2.5005,404.19,15.796,-0.0021175,2.0255e-8,0.013571,-5.9444e-6
2.5505,412.09,16.173,-0.002049,2.5554e-8,0.019678,-3.8679e-5
2.6005,419.83,16.541,-0.0019758,2.4124e-8,-0.018843,1.7954e-6
2.6505,427.4,16.904,-0.0018997,0,-0.0099883,1.6228e-6
2.6968,434.27,17.24,-0.0018324,-1.1738e-8,0.0018298,4.6914e-5
2.7414,440.76,17.564,-0.0017658,0,0.0093327,6.6917e-5
2.7914,447.89,17.922,-0.001681,-8.5328e-9,-0.0072837,3.218e-5
2.8414,454.87,18.269,-0.001587,-1.0623e-8,9.2919e-4,3.6406e-5
2.8914,461.7,18.605,-0.0014941,-1.3667e-8,0.00576,1.1476e-4
2.9414,468.38,18.933,-0.0014154,-9.0797e-9,0.0073668,1.8785e-4
2.9914,474.92,19.253,-0.0013609,-9.2423e-9,0.0089895,2.6677e-4
3.0414,481.33,19.568,-0.0013277,-9.9158e-9,-0.0087617,1.4986e-4
3.0914,487.59,19.877,-0.001306,-7.5692e-9,-0.0070372,3.6439e-5
3.1414,493.73,20.181,-0.0012844,-7.1872e-9,0.0068632,-7.1938e-5
3.1914,499.72,20.479,-0.0012583,0,0.0085136,-3.8421e-5
3.2414,505.59,20.77,-0.0012278,-5.1392e-9,0.010692,-1.3642e-4
3.2914,511.33,21.054,-0.0011887,-5.1642e-9,-0.010786,-2.4143e-4
3.3414,516.95,21.334,-0.0011381,0,-0.0085165,-5.4545e-5
3.3914,522.44,21.612,-0.0010783,0,-0.0024786,-2.4578e-5
3.4414,527.81,21.889,-0.0010148,0,0.0043107,-1.4019e-5
3.4914,533.06,22.164,-9.5153e-4,0,-0.0046839,3.9972e-6
3.5414,538.19,22.432,-8.9054e-4,-7.3991e-9,2.8047e-4,1.8172e-5
3.5914,543.2,22.693,-8.3343e-4,-1.3743e-8,0.0045744,2.8715e-5
3.6414,548.1,22.948,-7.8151e-4,-1.5445e-8,0.0058501,1.5394e-4
3.6914,552.88,23.198,-7.3526e-4,-1.6045e-8,0.006694,2.0168e-5
3.7414,557.55,23.443,-6.9338e-4,-1.6118e-8,0.0077438,2.5956e-4
3.7914,562.12,23.684,-6.5435e-4,-1.6188e-8,0.0079211,6.8693e-5
3.8414,566.57,23.922,-6.1748e-4,-1.6203e-8,0.0086326,1.5942e-5
3.8914,570.92,24.155,-5.8174e-4,-1.5907e-8,0.0094647,-3.67e-5
3.9414,575.16,24.384,-5.4486e-4,-1.6162e-8,-0.0097721,-1.2996e-4
3.9914,579.29,24.61,-5.0503e-4,-1.632e-8,-0.0092651,-7.8029e-5
4.0414,583.32,24.833,-4.6211e-4,-1.5468e-8,-0.0080388,-1.9942e-5
4.0914,587.25,25.054,-4.1682e-4,-1.6155e-8,-0.0062493,-1.5712e-5
4.1414,591.07,25.272,-3.7038e-4,-1.5953e-8,-0.0042995,-1.3071e-5
4.1914,594.8,25.49,-3.24e-4,-1.4512e-8,-0.0015205,-1.3165e-5
4.2414,598.42,25.706,-2.7894e-4,-1.5761e-8,2.5907e-4,-5.8439e-6
4.2914,601.95,25.921,-2.3605e-4,-1.6124e-8,0.001762,-3.1016e-6
4.3414,605.38,26.134,-1.952e-4,-1.5995e-8,-0.0018921,-2.0728e-6
4.3914,608.71,26.343,-1.5616e-4,-1.6028e-8,8.8608e-4,-4.6219e-6
4.4414,611.95,26.548,-1.187e-4,-1.8731e-8,0.0055289,-6.9852e-6
4.4914,615.09,26.747,-8.212e-5,-1.9047e-8,0.010582,-1.4679e-5
4.5414,618.14,26.94,-4.5631e-5,-1.7133e-8,0.01552,-1.8371e-5
4.5914,621.1,27.129,-8.3813e-6,-1.6243e-8,0.019288,-2.4435e-5
4.6414,623.97,27.313,3.0274e-5,-1.6688e-8,0.021699,-3.0981e-5
4.6914,626.74,27.494,7.0799e-5,-1.6245e-8,0.023599,-4.5395e-5
4.7414,629.42,27.671,1.1345e-4,-1.6256e-8,0.025092,-7.353e-5
4.7914,632.02,27.846,1.5861e-4,-1.5436e-8,0.026853,-5.1643e-5
4.8414,634.52,28.018,2.0655e-4,-1.5246e-8,0.029102,-7.2543e-5
4.8914,636.94,28.186,2.5744e-4,-1.5587e-8,0.030627,-9.034e-5
4.9414,639.26,28.351,3.1135e-4,-1.549e-8,0.03178,-1.2619e-4
4.9914,641.5,28.514,3.6824e-4,-1.5483e-8,0.032539,-1.5411e-4
5.0414,643.65,28.675,4.2804e-4,-1.543e-8,0.033625,-7.1881e-5
5.0914,645.72,28.833,4.906e-4,-1.5384e-8,0.034776,-1.8545e-4
5.1414,647.7,28.99,5.5562e-4,-1.5419e-8,-0.034285,-9.2605e-5
5.1914,649.59,29.145,6.2279e-4,-1.53e-8,-0.033034,-1.0735e-4
5.2414,651.4,29.299,6.9175e-4,-1.5408e-8,-0.032173,-9.7057e-5
5.2914,653.12,29.453,7.6211e-4,-1.5429e-8,-0.031372,-6.4149e-5
5.3414,654.76,29.606,8.3348e-4,-1.5233e-8,-0.03019,-1.81e-5
5.3914,656.32,29.758,9.0551e-4,-1.4994e-8,-0.028477,-8.2687e-6
5.4414,657.79,29.91,9.7791e-4,-1.5016e-8,-0.026877,3.325e-7
5.4914,659.17,30.063,0.0010505,-1.481e-8,-0.025412,7.2854e-6
5.5414,660.48,30.215,0.001123,-1.4786e-8,0.024639,6.5195e-4
5.5914,661.7,30.366,0.0011953,-1.4828e-8,0.0251,2.8991e-5
5.6414,662.84,30.516,0.0012674,-1.4724e-8,0.026422,2.1218e-5
5.6914,663.89,30.663,0.0013391,-1.4757e-8,0.028351,1.8501e-5
5.7414,664.87,30.808,0.0014104,-1.4898e-8,0.030665,1.723e-5
5.7914,665.76,30.951,0.0014811,-1.4899e-8,0.033112,1.7075e-5
5.8414,666.57,31.09,0.0015513,-1.4849e-8,0.03544,1.8532e-5
5.8914,667.31,31.226,0.0016209,-1.4898e-8,0.037564,1.6871e-5
5.9414,667.96,31.359,0.0016899,-1.4887e-8,0.039634,1.6076e-5
5.9914,668.53,31.489,0.0017583,-1.491e-8,0.041496,1.4682e-5
6.0414,669.02,31.615,0.001826,-1.4921e-8,0.043092,1.2658e-5
6.0914,669.44,31.737,0.0018931,-1.493e-8,0.043579,1.1624e-5
6.1414,669.77,31.855,0.0019595,-1.4932e-8,0.041998,1.1408e-5
6.1914,670.03,31.968,0.0020254,-1.4957e-8,0.038736,1.1068e-5
6.2414,670.21,32.077,0.0020906,-1.493e-8,0.033549,1.0314e-5
6.2914,670.3,32.182,0.0021555,-1.4958e-8,0.031466,9.7195e-6
6.3414,670.32,32.286,0.0022204,-1.496e-8,0.029706,9.5082e-6
6.3914,670.26,32.387,0.0022853,-1.4977e-8,0.027539,9.2935e-6
6.4414,670.12,32.488,0.0023503,-1.496e-8,0.024988,9.0391e-6
6.4914,669.9,32.586,0.0024153,-1.4936e-8,0.02201,8.893e-6
6.5414,669.61,32.682,0.0024803,-1.4958e-8,0.018476,8.51e-6
6.5914,669.23,32.776,0.0025453,-1.495e-8,0.014004,8.0022e-6
6.6414,668.77,32.866,0.00261,-1.496e-8,0.0088324,8.0383e-6
6.6914,668.24,32.952,0.0026746,-1.511e-8,0.0031148,7.8471e-6
6.7414,667.63,33.033,0.0027388,-1.4857e-8,-0.0034132,7.8329e-6
6.7914,666.95,33.108,0.0028027,-1.5065e-8,-0.010525,7.5795e-6
6.8414,666.18,33.177,0.002866,-1.4893e-8,-0.018423,7.7606e-6
6.8914,665.35,33.237,0.0029288,-1.5094e-8,-0.027373,8.5034e-6
6.9414,664.43,33.288,0.0029908,-1.5193e-8,-0.037198,8.3683e-6
6.9914,663.45,33.329,0.0030521,-1.449e-8,-0.047327,8.6253e-6
7.0414,662.39,33.356,0.0031126,-1.4484e-8,-0.057255,9.1856e-6
7.0914,661.26,33.37,0.0031722,-1.391e-8,-0.066617,1.0014e-5
7.1414,660.07,33.369,0.0032308,-1.3882e-8,-0.074736,1.2487e-5
7.1914,658.8,33.35,0.0032886,-1.4273e-8,-0.080747,1.2995e-5
7.2414,657.46,33.313,0.0033454,-1.443e-8,-0.084885,1.3292e-5
7.2914,656.05,33.257,0.0034016,-1.4415e-8,-0.086298,1.4414e-5
7.3414,654.58,33.178,0.0034571,-1.4415e-8,-0.083676,1.3206e-5
7.3914,653.03,33.078,0.0035122,-1.4009e-8,-0.075953,1.6733e-5
7.4414,651.42,32.953,0.0035672,-1.4861e-8,-0.062966,1.8287e-5
7.4754,650.28,32.855,0.0036048,-1.5203e-8,-0.050505,1.9592e-5
7.5031,649.34,32.766,0.0036355,-1.4488e-8,-0.038617,1.9997e-5
7.5274,648.49,32.682,0.0036626,-1.4546e-8,-0.026799,1.9902e-5
7.5489,647.73,32.602,0.0036869,-1.4656e-8,-0.015146,2.0356e-5
7.5686,647.02,32.525,0.0037093,-1.4994e-8,-0.0036025,2.0699e-5
7.5868,646.35,32.449,0.0037303,-1.5285e-8,0.0078629,2.0775e-5
7.6039,645.72,32.375,0.0037503,-1.513e-8,0.019251,2.09e-5
7.6203,645.1,32.301,0.0037697,-1.5035e-8,0.030583,1.9773e-5
7.636,644.51,32.227,0.0037885,-1.5178e-8,0.041862,1.9107e-5
7.6513,643.92,32.152,0.0038072,-1.5205e-8,0.053087,1.7591e-5
7.6664,643.34,32.076,0.0038258,-1.5224e-8,0.064136,1.737e-5
7.6816,642.74,31.996,0.0038449,-1.5273e-8,0.075141,1.6748e-5
7.6972,642.13,31.911,0.0038648,-1.5172e-8,0.086091,1.5599e-5
7.7132,641.49,31.82,0.0038858,-1.538e-8,0.097034,1.5467e-5
7.7297,640.83,31.723,0.0039078,-1.5507e-8,0.10794,1.5438e-5
7.747,640.13,31.618,0.0039313,-1.5397e-8,0.11875,1.3695e-5
7.7652,639.38,31.503,0.0039567,-1.5088e-8,0.12951,1.2559e-5
7.7846,638.57,31.374,0.0039847,-1.5399e-8,0.14016,1.213e-5
7.8059,637.67,31.226,0.0040164,-1.5028e-8,0.15061,1.0863e-5
7.8302,636.64,31.049,0.0040539,-1.4859e-8,0.16065,8.831e-6
7.8605,635.34,30.814,0.0041028,-1.5099e-8,0.16995,9.1081e-6
7.9042,633.42,30.447,0.0041785,-1.407e-8,0.17783,5.4342e-6
7.9511,631.33,30.014,0.004267,-1.3093e-8,0.17637,3.1605e-6
7.9983,629.18,29.532,0.0043647,-1.3538e-8,0.16402,2.8339e-6
8.0292,627.76,29.19,0.0044337,-1.377e-8,0.15073,3.5148e-6
8.0516,626.73,28.93,0.0044861,-1.3742e-8,0.13862,5.7589e-6
8.0705,625.85,28.699,0.0045325,-1.3984e-8,0.1269,4.287e-6
8.0877,625.05,28.484,0.0045759,-1.4066e-8,0.11537,4.2707e-6
8.1037,624.3,28.277,0.0046175,-1.4237e-8,0.10396,5.367e-6
8.1189,623.59,28.074,0.0046581,-1.4006e-8,0.092581,5.4186e-6
8.1334,622.91,27.876,0.004698,-1.3959e-8,0.081282,5.5804e-6
8.1474,622.25,27.679,0.0047376,-1.4188e-8,0.070048,5.8809e-6
8.1612,621.6,27.481,0.0047774,-1.4128e-8,0.058906,6.0545e-6
8.1749,620.95,27.279,0.0048179,-1.4138e-8,0.047829,6.3547e-6
8.1887,620.29,27.071,0.0048597,-1.399e-8,0.036797,6.611e-6
8.2027,619.63,26.854,0.0049031,-1.396e-8,0.025817,6.8041e-6
8.2171,618.94,26.628,0.0049486,-1.3635e-8,0.014906,6.465e-6
8.2321,618.23,26.387,0.004997,-1.3412e-8,0.004068,6.0135e-6
8.2478,617.48,26.127,0.0050492,-1.3341e-8,-0.0066803,5.4245e-6
8.2647,616.67,25.841,0.0051066,-1.3661e-8,-0.017192,3.9771e-6
8.2838,615.76,25.512,0.0051729,-1.2982e-8,-0.027403,3.9645e-6
8.3066,614.67,25.105,0.0052548,-1.3395e-8,-0.037096,3.0206e-6
8.3371,613.2,24.543,0.0053684,-1.2339e-8,-0.045721,1.9264e-6
8.3829,610.98,23.658,0.0055475,-1.2859e-8,-0.049006,4.7517e-6
8.4329,608.54,22.639,0.0057546,-1.4136e-8,-0.039742,1.401e-6
8.469,606.76,21.868,0.0059117,-1.2049e-8,-0.025708,5.1151e-6
8.4926,605.6,21.349,0.0060178,-1.0753e-8,-0.01344,4.2795e-6
8.5123,604.62,20.908,0.006108,-1.157e-8,-0.0016136,4.9525e-6
8.5297,603.76,20.511,0.0061894,-1.1776e-8,0.010008,5.6692e-6
8.5456,602.96,20.141,0.0062655,-1.1838e-8,0.02146,5.3042e-6
8.5607,602.21,19.786,0.0063386,-1.1692e-8,0.032711,5.2808e-6
8.5755,601.46,19.433,0.0064115,-1.1624e-8,0.043802,4.0974e-6
8.5905,600.71,19.072,0.0064861,-1.1309e-8,0.054807,4.1752e-6
8.6057,599.94,18.699,0.0065635,-1.1247e-8,0.065729,5.5403e-6
8.6215,599.14,18.306,0.006645,-1.068e-8,0.076564,6.4435e-6
8.6382,598.3,17.886,0.0067325,-1.0775e-8,0.087269,8.4981e-6
8.6541,597.49,17.48,0.0068171,-1.0617e-8,0.096574,7.9206e-6
8.674,596.48,16.963,0.0069253,-1.0058e-8,0.10695,6.8043e-6
8.697,595.3,16.354,0.0070535,-1.0478e-8,0.11689,7.3212e-6
8.7264,593.81,15.559,0.0072214,-9.325e-9,0.12581,6.934e-6
8.7705,591.56,14.328,0.0074837,-9.0668e-9,0.13061,1.3691e-6
8.8205,589.01,12.874,0.0077974,-8.3981e-9,0.12559,2.7642e-6
8.8691,586.53,11.4,0.0081197,-1.4329e-8,0.10915,3.0271e-6
8.8964,585.15,10.549,0.0083075,-1.4059e-8,0.097542,7.8807e-7
8.9216,583.88,9.744,0.0084863,-1.5721e-8,0.08596,6.9024e-7
8.9449,582.71,8.9878,0.0086553,-1.6453e-8,0.074604,0
8.9673,581.58,8.2467,0.0088219,-1.6239e-8,0.063553,1.8277e-6
8.9902,580.44,7.4782,0.0089955,-1.6408e-8,0.052746,4.0599e-6
9.0146,579.23,6.6469,0.0091842,-1.6842e-8,0.042189,4.2732e-6
9.0418,577.89,5.7034,0.0093997,-1.6105e-8,0.031975,2.7461e-6
9.0746,576.28,4.547,0.0096655,-1.6158e-8,0.022646,-6.4171e-7
9.1236,573.88,2.7695,0.010077,-1.8499e-8,0.016561,-1.1327e-7
9.1736,571.46,0.90802,0.010513,-1.8772e-8,0.021938,4.8673e-7
9.2236,569.05,-1.0021,0.010965,-1.932e-8,0.03619,-3.0404e-6
9.2592,567.35,-2.3886,0.011295,-2.1736e-8,0.047329,5.0335e-7
9.2937,565.71,-3.757,0.011623,-2.0144e-8,0.059056,5.3633e-6
9.3253,564.21,-5.0291,0.011929,-1.9846e-8,0.069436,1.0223e-5
9.3635,562.42,-6.5894,0.012308,-1.8048e-8,0.078483,9.958e-6
9.4135,560.09,-8.6717,0.012817,-1.5886e-8,0.085031,8.6149e-6
9.4635,557.78,-10.797,0.013342,-1.6485e-8,0.083549,8.9398e-6
9.5135,555.5,-12.963,0.013884,-1.6633e-8,0.076046,1.2297e-5
9.5635,553.26,-15.168,0.014442,-1.9195e-8,0.063827,1.2436e-5
9.6031,551.5,-16.942,0.014896,-1.8609e-8,0.052089,9.2077e-6
9.6391,549.93,-18.577,0.015318,-2.0204e-8,0.040533,1.0793e-5
9.6731,548.46,-20.133,0.015723,-1.9656e-8,0.030013,9.9599e-6
9.7134,546.74,-22.001,0.016214,-2.2126e-8,0.021105,1.0164e-5
9.7634,544.63,-24.346,0.016836,-2.098e-8,0.01793,1.5557e-5
9.8134,542.55,-26.721,0.017475,-2.0784e-8,0.021703,9.0785e-6
9.8634,540.5,-29.125,0.01813,-2.2561e-8,0.028637,1.0909e-5
9.9134,538.48,-31.555,0.0188,-2.0838e-8,0.037893,1.1095e-5
9.9634,536.49,-34.012,0.019487,-2.4453e-8,0.047211,7.2009e-6
10.013,534.52,-36.492,0.020189,-2.7962e-8,0.055072,9.3858e-6
10.063,532.59,-38.996,0.020907,-2.6238e-8,0.060868,7.3641e-6
10.113,530.68,-41.521,0.021641,-2.4683e-8,0.06538,9.8475e-6
10.163,528.8,-44.065,0.022392,-2.4749e-8,0.067447,1.0917e-5
10.213,526.96,-46.626,0.023161,-2.2955e-8,0.064371,1.3118e-5
10.263,525.16,-49.203,0.023945,-2.3695e-8,0.054417,7.4824e-6
10.307,523.6,-51.488,0.024651,-2.4849e-8,0.042518,5.3144e-6
10.348,522.19,-53.593,0.025308,-2.4623e-8,0.032401,1.0254e-6
10.398,520.48,-56.203,0.026134,-2.7943e-8,0.022722,2.7179e-6
10.448,518.8,-58.824,0.026974,-2.7344e-8,0.0155,1.132e-5
10.498,517.16,-61.454,0.027826,-2.674e-8,0.012708,1.1496e-5
10.548,515.54,-64.091,0.028692,-2.7324e-8,0.01552,1.384e-5
10.598,513.96,-66.735,0.029571,-2.6934e-8,0.02068,6.6758e-6
10.648,512.4,-69.385,0.030463,-2.9524e-8,0.027616,3.897e-6
10.698,510.86,-72.04,0.031367,-2.8942e-8,0.034726,1.0162e-5
10.748,509.35,-74.7,0.032283,-2.9051e-8,0.039545,7.1682e-6
10.798,507.87,-77.362,0.03321,-2.8994e-8,0.04066,3.8461e-6
10.848,506.4,-80.027,0.034147,-2.8935e-8,0.038172,3.787e-6
10.898,504.97,-82.692,0.035092,-2.9025e-8,0.034319,8.9239e-6
10.948,503.55,-85.357,0.036046,-3.0806e-8,0.029804,1.01e-5
10.998,502.16,-88.021,0.037009,-2.9211e-8,0.024733,1.1213e-5
11.048,500.79,-90.682,0.037979,-2.9167e-8,0.01949,3.8782e-6
11.098,499.45,-93.341,0.038956,-2.8896e-8,0.015204,8.3144e-6
11.148,498.12,-95.997,0.039941,-3.0035e-8,0.012991,7.3766e-6
11.198,496.81,-98.648,0.040933,-3.0258e-8,0.01234,5.216e-6
11.248,495.52,-101.3,0.041932,-3.0044e-8,0.01276,4.0026e-6
11.298,494.24,-103.94,0.042937,-2.9851e-8,0.014212,6.2504e-6
11.348,492.98,-106.57,0.043947,-3.0031e-8,0.015659,1.018e-5
11.398,491.74,-109.21,0.044963,-3.038e-8,0.01634,9.1617e-6
11.448,490.5,-111.83,0.045982,-3.0442e-8,0.016306,7.6259e-6
11.498,489.28,-114.45,0.047006,-3.0839e-8,0.015349,4.6324e-6
11.548,488.06,-117.06,0.048033,-3.1406e-8,0.013131,3.526e-6
11.598,486.86,-119.67,0.049061,-3.1566e-8,0.010341,-3.3366e-6
11.648,485.67,-122.27,0.050092,-3.1626e-8,0.0082786,-5.5878e-6
11.698,484.48,-124.86,0.051126,-3.1558e-8,0.0065828,-3.77e-6
11.748,483.3,-127.45,0.05216,-3.1759e-8,0.0043258,-1.1249e-5
11.798,482.13,-130.02,0.053193,-3.1943e-8,0.0022964,-5.473e-6
11.848,480.97,-132.59,0.054226,-3.1848e-8,8.4087e-4,-5.54e-6
11.898,479.81,-135.15,0.055257,-3.2139e-8,-3.6132e-4,-3.2482e-6
11.948,478.65,-137.71,0.056286,-3.231e-8,-9.905e-4,-5.9207e-7
11.998,477.5,-140.25,0.057314,-3.2247e-8,-0.0012382,-1.7412e-6
12.048,476.34,-142.79,0.058338,-3.2494e-8,-0.0018517,-6.7173e-7
12.098,475.19,-145.32,0.059359,-3.2473e-8,-0.0030467,-6.7754e-6
12.148,474.04,-147.85,0.060377,-3.2564e-8,-0.0038928,-1.0395e-5
12.198,472.89,-150.36,0.06139,-3.2714e-8,-0.0045629,-1.4701e-5
12.248,471.74,-152.87,0.062398,-3.2701e-8,-0.0052345,-1.6178e-5
12.298,470.59,-155.38,0.063402,-3.2651e-8,-0.0057443,-1.9377e-5
12.348,469.44,-157.87,0.064399,-3.2642e-8,-0.0055684,-2.1829e-5
12.398,468.28,-160.37,0.065391,-3.2523e-8,-0.0052362,-2.108e-5
12.448,467.12,-162.85,0.066375,-3.2407e-8,-0.0056721,-1.9766e-5
12.498,465.96,-165.33,0.067351,-3.2635e-8,-0.0068031,-1.8065e-5
12.548,464.79,-167.8,0.068317,-3.2584e-8,-0.0086214,-2.0778e-5
12.598,463.62,-170.27,0.069275,-3.2689e-8,-0.010734,-2.5482e-5
12.648,462.44,-172.73,0.070221,-3.2721e-8,-0.013035,-2.8162e-5
12.698,461.26,-175.19,0.071157,-3.2795e-8,-0.014894,-3.2744e-5
12.748,460.07,-177.64,0.072082,-3.2752e-8,-0.015598,-2.7793e-5
12.798,458.88,-180.09,0.072995,-3.2533e-8,-0.015088,-2.7933e-5
12.848,457.68,-182.53,0.073896,-3.2765e-8,-0.013048,-3.0157e-5
12.898,456.47,-184.98,0.074785,-3.2863e-8,-0.0099312,-2.5717e-5
12.948,455.26,-187.41,0.075663,-3.3207e-8,-0.006738,-2.7301e-5
12.998,454.05,-189.85,0.076528,-3.3486e-8,-0.0034059,-2.5126e-5
13.048,452.83,-192.28,0.077381,-3.2926e-8,-7.354e-5,-2.3483e-5
13.098,451.6,-194.7,0.078221,-3.3218e-8,0.002907,-2.7623e-5
13.148,450.38,-197.13,0.079048,-3.304e-8,0.0051419,-3.0404e-5
13.198,449.15,-199.55,0.079862,-3.303e-8,0.0054547,-2.6368e-5
13.248,447.91,-201.96,0.080662,-3.3268e-8,0.0041402,-2.5251e-5
13.298,446.68,-204.38,0.081447,-3.2661e-8,0.0019843,-2.7714e-5
13.348,445.44,-206.79,0.082218,-3.2334e-8,-6.1328e-4,-3.1673e-5
13.398,444.2,-209.19,0.082975,-3.1993e-8,-0.003752,-2.6154e-5
13.448,442.95,-211.6,0.083716,-3.1798e-8,-0.0075927,-2.6528e-5
13.498,441.71,-214,0.084441,-3.142e-8,-0.011942,-2.8432e-5
13.548,440.46,-216.4,0.08515,-3.0434e-8,-0.015755,-3.0137e-5
13.598,439.2,-218.79,0.085844,-3.0388e-8,-0.019183,-3.0661e-5
13.648,437.94,-221.18,0.086521,-3.0253e-8,-0.021522,-2.8187e-5
13.698,436.67,-223.57,0.087182,-3.0255e-8,-0.021548,-3.0177e-5
13.748,435.4,-225.96,0.087826,-3.0183e-8,-0.020224,-3.2473e-5
13.798,434.12,-228.35,0.088455,-3.0536e-8,-0.017819,-3.5263e-5
13.848,432.84,-230.74,0.089067,-3.0372e-8,-0.014496,-3.9125e-5
13.898,431.54,-233.13,0.089661,-3.0469e-8,-0.010294,-3.906e-5
13.948,430.24,-235.52,0.090239,-3.0972e-8,-0.0055542,-3.5167e-5
13.998,428.94,-237.9,0.090798,-3.0621e-8,-8.7117e-4,-3.4425e-5
14.048,427.63,-240.29,0.09134,-3.0862e-8,0.0035425,-3.3169e-5
14.098,426.31,-242.68,0.091863,-3.1365e-8,0.0060752,-3.1434e-5
14.148,424.99,-245.07,0.092368,-3.1112e-8,0.0067244,-3.0973e-5
14.198,423.67,-247.46,0.092854,-3.1101e-8,0.0057664,-2.8101e-5
14.248,422.34,-249.85,0.093321,-3.134e-8,0.002804,-2.369e-5
14.298,421.01,-252.24,0.093769,-3.175e-8,-6.9445e-4,-2.0858e-5
14.348,419.67,-254.63,0.094198,-3.201e-8,-0.0036784,-2.1592e-5
14.398,418.34,-257.02,0.09461,-3.1348e-8,-0.0068132,-1.9858e-5
14.448,417,-259.41,0.095004,-3.1688e-8,-0.010119,-2.3174e-5
14.498,415.65,-261.8,0.09538,-3.1873e-8,-0.012394,-2.159e-5
14.548,414.31,-264.19,0.09574,-3.1694e-8,-0.012773,-1.8937e-5
14.598,412.96,-266.58,0.096083,-3.1679e-8,-0.011691,-1.9503e-5
14.648,411.61,-268.97,0.096409,-3.1357e-8,-0.0095492,-1.9741e-5
14.698,410.26,-271.37,0.09672,-3.1522e-8,-0.0060669,-2.08e-5
14.748,408.9,-273.77,0.097014,-3.1437e-8,-0.0018589,-2.6024e-5
14.798,407.54,-276.16,0.097293,-3.2455e-8,0.00242,-2.6646e-5
14.848,406.18,-278.56,0.097556,-3.2699e-8,0.0054786,-2.276e-5
14.898,404.82,-280.96,0.097804,-3.3136e-8,0.0072175,-1.9272e-5
14.948,403.46,-283.37,0.098035,-3.2936e-8,0.0088236,-1.9875e-5
14.998,402.09,-285.77,0.098251,-3.2552e-8,0.0099482,-2.0668e-5
15.048,400.73,-288.17,0.098451,-3.27e-8,0.0098474,-2.0557e-5
15.098,399.37,-290.58,0.098636,-3.2593e-8,0.0078747,-2.3285e-5
15.148,398,-292.99,0.098806,-3.2199e-8,0.0035122,-2.418e-5
15.198,396.64,-295.39,0.09896,-3.0929e-8,-0.0022011,-2.1378e-5
15.248,395.28,-297.8,0.099099,-3.2531e-8,-0.0069512,-2.0208e-5
15.298,393.91,-300.21,0.099223,-3.3706e-8,-0.010722,-1.9782e-5
15.348,392.55,-302.62,0.099332,-3.3433e-8,-0.013763,-1.7878e-5
15.398,391.18,-305.03,0.099426,-3.3395e-8,-0.014735,-1.3971e-5
15.448,389.82,-307.44,0.099506,-3.2599e-8,-0.011928,-1.1351e-5
15.498,388.45,-309.86,0.099571,-3.2245e-8,-0.0059728,-7.3534e-6
15.548,387.08,-312.28,0.099623,-3.225e-8,9.2374e-4,-1.016e-5
15.598,385.72,-314.69,0.099663,-3.3432e-8,0.0072323,-1.194e-5
15.648,384.35,-317.11,0.099689,-3.2761e-8,0.011425,-9.2085e-6
15.698,382.98,-319.53,0.099704,-3.3222e-8,0.014237,-8.8161e-6
15.748,381.61,-321.96,0.099707,-3.2812e-8,0.015933,-7.4045e-6
15.798,380.24,-324.38,0.099698,-3.2816e-8,0.015737,-6.2432e-6
15.848,378.88,-326.8,0.099679,-3.2926e-8,0.014497,-5.3343e-6
15.898,377.52,-329.23,0.099649,-3.352e-8,0.012455,-8.3102e-6
15.948,376.16,-331.65,0.09961,-3.2974e-8,0.0091579,-1.0531e-5
15.998,374.81,-334.08,0.099561,-3.404e-8,0.0055722,-8.9707e-6
16.048,373.46,-336.5,0.099502,-3.4466e-8,0.0015801,-6.5878e-6
16.098,372.12,-338.93,0.099434,-3.3436e-8,-0.0028779,-9.2316e-6
16.148,370.77,-341.35,0.099357,-3.5143e-8,-0.0073046,-8.034e-6
16.198,369.43,-343.78,0.099272,-3.6172e-8,-0.010602,-7.9115e-6
16.248,368.09,-346.2,0.099178,-3.5924e-8,-0.011424,-4.8349e-6
16.298,366.75,-348.62,0.099076,-3.5517e-8,-0.009375,-7.5762e-6
16.348,365.41,-351.05,0.098967,-3.5809e-8,-0.0051479,-1.0371e-5
16.398,364.08,-353.47,0.098849,-3.5594e-8,0.0010443,-1.2552e-5
16.448,362.74,-355.9,0.098724,-3.7064e-8,0.0072957,-1.4015e-5
16.498,361.41,-358.32,0.098591,-3.7217e-8,0.011923,-1.4794e-5
16.548,360.07,-360.75,0.098451,-3.7847e-8,0.015814,-1.6257e-5
16.598,358.74,-363.17,0.098302,-3.8034e-8,0.017339,-1.5305e-5
16.648,357.42,-365.59,0.098145,-3.814e-8,0.015791,-1.2097e-5
16.698,356.09,-368.02,0.09798,-3.819e-8,0.012323,-1.3266e-5
16.748,354.77,-370.44,0.097807,-3.9702e-8,0.0080722,-1.1179e-5
16.798,353.45,-372.86,0.097625,-4.072e-8,0.0035013,-9.5994e-6
16.848,352.13,-375.28,0.097436,-4.1632e-8,-7.9506e-4,-1.0615e-5
16.898,350.82,-377.7,0.097239,-4.2809e-8,-0.0042303,-1.2291e-5
16.948,349.51,-380.11,0.097034,-4.3889e-8,-0.0069612,-1.3681e-5
16.998,348.2,-382.53,0.096821,-4.3901e-8,-0.0081526,-1.7489e-5
17.048,346.89,-384.94,0.0966,-4.3975e-8,-0.0080369,-1.851e-5
17.098,345.58,-387.35,0.096371,-4.4082e-8,-0.0074941,-1.5562e-5
17.148,344.28,-389.76,0.096133,-4.3415e-8,-0.0060591,-1.6534e-5
17.198,342.97,-392.18,0.095886,-4.2419e-8,-0.0033313,-1.566e-5
17.248,341.67,-394.58,0.095631,-4.2811e-8,-1.077e-4,-1.3164e-5
17.298,340.36,-396.99,0.095366,-4.2437e-8,0.0032725,-9.8359e-6
17.348,339.05,-399.4,0.095093,-4.2673e-8,0.0057961,-1.0113e-5
17.398,337.75,-401.81,0.094812,-4.2765e-8,0.006953,-1.6339e-5
17.448,336.44,-404.21,0.094521,-4.2779e-8,0.0070357,-1.1411e-5
17.498,335.13,-406.62,0.094223,-4.279e-8,0.0069113,-1.1784e-5
17.548,333.83,-409.02,0.093915,-4.2806e-8,0.0061173,-8.9866e-6
17.598,332.52,-411.42,0.0936,-4.2784e-8,0.0039116,-3.2319e-6
17.648,331.22,-413.82,0.093276,-4.3292e-8,6.4872e-4,1.0422e-7
17.698,329.91,-416.22,0.092945,-4.3612e-8,-0.0028707,-2.0939e-7
17.748,328.61,-418.62,0.092608,-4.3853e-8,-0.0061744,-2.8481e-6
17.798,327.31,-421.02,0.092264,-4.3416e-8,-0.0092207,-1.4453e-6
17.848,326,-423.41,0.091915,-4.3105e-8,-0.011167,-1.2774e-6
17.898,324.69,-425.81,0.09156,-4.3043e-8,-0.012324,1.4919e-6
17.948,323.39,-428.2,0.091199,-4.3294e-8,-0.012934,2.3018e-6
17.998,322.07,-430.6,0.090835,-4.3132e-8,-0.012156,1.8248e-6
18.048,320.76,-432.99,0.090465,-4.3495e-8,-0.010732,5.6762e-7
18.098,319.44,-435.38,0.090092,-4.3861e-8,-0.0084364,1.0411e-6
18.148,318.12,-437.78,0.089716,-4.3268e-8,-0.0043891,-1.5744e-6
18.198,316.8,-440.17,0.089335,-4.2635e-8,5.5601e-4,-8.7065e-7
18.248,315.47,-442.57,0.088951,-4.1551e-8,0.0047322,-2.9485e-6
18.298,314.14,-444.96,0.088564,-4.2462e-8,0.0070879,-1.6308e-6
18.348,312.81,-447.35,0.088174,-4.2543e-8,0.0072334,-9.1247e-7
18.398,311.48,-449.75,0.087781,-4.2674e-8,0.0060243,2.7137e-6
18.448,310.15,-452.14,0.087385,-4.2617e-8,0.0036681,3.6556e-6
18.498,308.81,-454.54,0.086987,-4.2834e-8,5.3514e-4,1.2927e-6
18.548,307.47,-456.94,0.086587,-4.2927e-8,-0.0021832,-5.9489e-6
18.598,306.14,-459.33,0.086185,-4.3101e-8,-0.0041989,-5.6503e-6
18.648,304.8,-461.73,0.085781,-4.2432e-8,-0.006319,-5.6404e-6
18.698,303.46,-464.12,0.085375,-4.2701e-8,-0.0078839,-4.3214e-6
18.748,302.12,-466.52,0.084967,-4.2836e-8,-0.0083464,-3.4763e-6
18.798,300.78,-468.92,0.084556,-4.2769e-8,-0.0086798,-6.1219e-6
18.848,299.43,-471.31,0.084143,-4.2694e-8,-0.0080744,-9.2164e-6
18.898,298.09,-473.71,0.083726,-4.2056e-8,-0.0058264,-1.2382e-5
18.948,296.74,-476.11,0.083307,-4.2826e-8,-0.0029307,-1.4714e-5
18.998,295.39,-478.51,0.082884,-4.2964e-8,5.9506e-4,-1.4921e-5
19.048,294.04,-480.91,0.082457,-4.2818e-8,0.0035857,-1.7102e-5
19.098,292.69,-483.31,0.082025,-4.2533e-8,0.0060008,-1.287e-5
19.148,291.34,-485.72,0.081588,-4.1821e-8,0.0084802,-1.3054e-5
19.198,289.99,-488.12,0.081146,-4.2236e-8,0.0095004,-1.3686e-5
19.248,288.64,-490.53,0.080699,-4.2522e-8,0.0086953,-1.0792e-5
19.298,287.29,-492.93,0.080246,-4.3475e-8,0.0064346,-1.0413e-5
19.348,285.94,-495.34,0.079787,-4.3422e-8,0.0038045,-3.9483e-6
19.398,284.59,-497.74,0.079324,-4.2551e-8,0.0016097,-3.9777e-6
19.448,283.24,-500.15,0.078854,-4.2682e-8,-7.3014e-5,-3.0956e-6
19.498,281.9,-502.55,0.07838,-4.2219e-8,-0.0019131,-1.0749e-6
19.548,280.55,-504.96,0.0779,-4.2013e-8,-0.0029729,-3.2657e-6
19.598,279.21,-507.37,0.077416,-4.1935e-8,-0.0023989,-6.243e-6
19.648,277.87,-509.77,0.076927,-4.1798e-8,-7.5847e-4,-1.0643e-5
19.698,276.53,-512.18,0.076434,-4.1702e-8,0.001618,-1.5536e-5
19.748,275.19,-514.59,0.075935,-4.1966e-8,0.0046823,-1.2743e-5
19.798,273.85,-516.99,0.07543,-4.2822e-8,0.0078994,-8.8533e-6
19.848,272.52,-519.4,0.074919,-4.2417e-8,0.0089998,-1.0912e-5
19.898,271.19,-521.81,0.074403,-4.2255e-8,0.0077795,-7.6699e-6
19.948,269.86,-524.21,0.073882,-4.1904e-8,0.005805,-6.7477e-6
19.998,268.53,-526.62,0.073356,-4.2122e-8,0.0038161,-8.0886e-6
20.048,267.2,-529.02,0.072824,-4.2117e-8,0.0015296,-1.1669e-5
20.098,265.87,-531.43,0.072287,-4.1991e-8,-6.1229e-4,-1.4064e-5
20.148,264.55,-533.83,0.071744,-4.1685e-8,-0.0020104,-1.0237e-5
20.198,263.23,-536.23,0.071195,-4.1879e-8,-0.0027427,-8.4027e-6
20.248,261.91,-538.64,0.07064,-4.1978e-8,-0.0030163,-7.0784e-6
20.298,260.59,-541.04,0.070079,-4.2046e-8,-0.0026149,-4.2374e-6
20.348,259.27,-543.44,0.069513,-4.2193e-8,-0.0018903,-4.4767e-6
20.398,257.95,-545.84,0.068941,-4.2051e-8,-0.0012185,-6.9966e-6
20.448,256.63,-548.24,0.068364,-4.2023e-8,-0.0016277,-9.4276e-6
20.498,255.31,-550.64,0.067782,-4.2041e-8,-0.0022251,-8.118e-6
20.548,253.99,-553.04,0.067195,-4.1992e-8,-0.0017535,-1.0739e-5
20.598,252.67,-555.44,0.066603,-4.2057e-8,-6.3443e-4,-1.2717e-5
20.648,251.35,-557.83,0.066005,-4.1944e-8,2.2006e-4,-1.505e-5
20.698,250.02,-560.23,0.065401,-4.1991e-8,1.2673e-6,-1.6792e-5
20.748,248.7,-562.63,0.064792,-4.1807e-8,-0.0011571,-2.079e-5
20.798,247.38,-565.03,0.064176,-4.1721e-8,-0.0031363,-2.318e-5
20.848,246.05,-567.42,0.063554,-4.2423e-8,-0.0068267,-2.5344e-5
20.898,244.72,-569.82,0.062926,-4.1817e-8,-0.010891,-2.8103e-5
20.948,243.39,-572.22,0.062291,-4.1228e-8,-0.013332,-2.7656e-5
20.998,242.05,-574.62,0.061647,-4.1317e-8,-0.014045,-2.6409e-5
21.048,240.71,-577.02,0.060994,-4.1282e-8,-0.013055,-3.0171e-5
21.098,239.37,-579.42,0.060331,-4.218e-8,-0.01028,-3.0157e-5
21.148,238.02,-581.82,0.059656,-4.3247e-8,-0.0060005,-3.0871e-5
21.198,236.68,-584.22,0.05897,-4.5132e-8,-0.0012279,-3.1702e-5
21.248,235.33,-586.62,0.058271,-4.4418e-8,0.0028548,-2.8952e-5
21.298,233.97,-589.03,0.057559,-4.3778e-8,0.0055283,-2.6839e-5
21.348,232.62,-591.43,0.056834,-4.377e-8,0.0081337,-2.4204e-5
21.398,231.26,-593.84,0.056095,-4.3571e-8,0.008964,-3.0876e-5
21.448,229.9,-596.25,0.055342,-4.3342e-8,0.0080477,-2.6362e-5
21.498,228.54,-598.66,0.054575,-4.3368e-8,0.0072901,-2.9948e-5
21.548,227.19,-601.07,0.053793,-4.3567e-8,0.0060147,-2.8288e-5
21.598,225.83,-603.48,0.052995,-4.4331e-8,0.0038928,-2.8217e-5
21.648,224.47,-605.89,0.052182,-4.4394e-8,0.0017467,-2.9201e-5
21.698,223.12,-608.3,0.051352,-4.426e-8,-4.9558e-4,-3.4649e-5
21.748,221.77,-610.72,0.050507,-4.4976e-8,-0.0026038,-3.2309e-5
21.798,220.41,-613.13,0.049644,-4.5116e-8,-0.003657,-3.6916e-5
21.848,219.06,-615.54,0.048764,-4.5136e-8,-0.0039708,-4.1657e-5
21.898,217.71,-617.96,0.047866,-4.5092e-8,-0.0035697,-3.7228e-5
21.948,216.36,-620.37,0.046948,-4.5523e-8,-0.0015611,-3.54e-5
21.998,215.01,-622.79,0.046011,-4.5841e-8,0.0016262,-3.3346e-5
22.048,213.66,-625.21,0.045052,-4.6006e-8,0.005884,-3.9341e-5
22.098,212.32,-627.62,0.044071,-4.6328e-8,0.01001,-4.2988e-5
22.148,210.98,-630.04,0.043069,-4.5803e-8,0.012303,-4.2165e-5
22.198,209.63,-632.46,0.042044,-4.5673e-8,0.013541,-3.8049e-5
22.248,208.3,-634.87,0.040996,-4.5668e-8,0.01349,-3.3957e-5
22.298,206.96,-637.29,0.039926,-4.5623e-8,0.0125,-3.7327e-5
22.348,205.63,-639.71,0.038832,-4.6125e-8,0.01053,-3.9383e-5
22.398,204.31,-642.12,0.037715,-4.6609e-8,0.0080973,-3.9266e-5
22.448,202.98,-644.53,0.036574,-4.6388e-8,0.0054318,-4.5877e-5
22.498,201.66,-646.95,0.035409,-4.5482e-8,0.0019329,-4.574e-5
22.548,200.35,-649.36,0.034221,-4.5846e-8,-0.0016673,-4.1853e-5
22.598,199.04,-651.77,0.033009,-4.5845e-8,-0.0041808,-4.6019e-5
22.648,197.73,-654.17,0.031773,-4.6171e-8,-0.0059738,-4.7567e-5
22.698,196.42,-656.58,0.030512,-4.6159e-8,-0.0068796,-5.4794e-5
22.748,195.11,-658.99,0.029226,-4.5834e-8,-0.0063081,-5.7689e-5
22.798,193.81,-661.39,0.027914,-4.5574e-8,-0.0044898,-5.6196e-5
22.848,192.51,-663.79,0.026574,-4.5644e-8,-0.0027093,-5.768e-5
22.898,191.2,-666.19,0.025208,-4.5832e-8,-0.0011516,-6.167e-5
22.948,189.9,-668.6,0.023813,-4.5961e-8,4.3251e-4,-6.1391e-5
22.998,188.59,-671,0.022391,-4.6192e-8,0.002197,-6.5891e-5
23.048,187.29,-673.39,0.020937,-4.6287e-8,0.0046634,-6.9644e-5
23.098,185.98,-675.79,0.019452,-4.6445e-8,0.0064251,-7.2787e-5
23.148,184.68,-678.19,0.017934,-4.6532e-8,0.0071375,-7.3789e-5
23.198,183.37,-680.59,0.016382,-4.6537e-8,0.0070605,-7.4115e-5
23.248,182.07,-682.98,0.014796,-4.6913e-8,0.0054483,-7.0633e-5
23.298,180.77,-685.37,0.013176,-4.6146e-8,0.0026462,-7.0941e-5
23.348,179.47,-687.76,0.011521,-4.6449e-8,4.2301e-4,-7.5603e-5
23.398,178.17,-690.15,0.0098289,-4.704e-8,-0.0011773,-7.8303e-5
23.448,176.87,-692.54,0.0080984,-4.7129e-8,-0.0026876,-8.2632e-5
23.498,175.57,-694.93,0.0063287,-4.6962e-8,-0.0035992,-7.9396e-5
23.548,174.28,-697.31,0.0045192,-4.7003e-8,-0.0045046,-7.8889e-5
23.598,172.98,-699.7,0.0026696,-4.7115e-8,-0.0044889,-8.3507e-5
23.648,171.68,-702.08,7.7783e-4,-4.7254e-8,-0.0036482,-7.9719e-5
23.698,170.39,-704.46,-0.0011559,-4.742e-8,-0.0031672,-8.0561e-5
23.748,169.09,-706.84,-0.0031313,-4.7421e-8,-0.0028082,-8.3947e-5
23.798,167.79,-709.22,-0.0051489,-4.7617e-8,-0.0023128,-8.5187e-5
23.848,166.49,-711.6,-0.0072099,-4.782e-8,-0.0014321,-8.8423e-5
23.898,165.19,-713.97,-0.0093154,-4.7819e-8,-9.0251e-4,-9.2737e-5
23.948,163.89,-716.35,-0.011465,-4.7826e-8,-0.001003,-9.2737e-5
23.998,162.59,-718.73,-0.01366,-4.7808e-8,-0.0011679,-9.2812e-5
24.048,161.28,-721.1,-0.015901,-4.7823e-8,-8.9656e-4,-9.6743e-5
24.098,159.98,-723.47,-0.018192,-4.7836e-8,-1.4721e-4,-9.9736e-5
24.148,158.67,-725.84,-0.020533,-4.788e-8,6.7817e-4,-9.9955e-5
24.198,157.36,-728.22,-0.022927,-4.7842e-8,0.0017442,-1.0232e-4
24.248,156.06,-730.59,-0.025374,-4.7995e-8,0.0028454,-1.0105e-4
24.298,154.75,-732.96,-0.027877,-4.8062e-8,0.0035379,-1.0098e-4
24.348,153.45,-735.32,-0.030435,-4.7954e-8,0.0028868,-1.0218e-4
24.398,152.14,-737.69,-0.033046,-4.7932e-8,8.1416e-4,-1.0272e-4
24.448,150.83,-740.06,-0.03571,-4.7789e-8,-0.0014351,-1.0427e-4
24.498,149.53,-742.42,-0.038429,-4.7437e-8,-0.0037896,-1.06e-4
24.548,148.22,-744.79,-0.041201,-4.818e-8,-0.0062751,-1.0744e-4
24.598,146.91,-747.15,-0.044029,-4.8155e-8,-0.0079244,-1.0544e-4
24.648,145.6,-749.51,-0.046913,-4.8408e-8,-0.0087051,-1.0708e-4
24.698,144.28,-751.87,-0.049855,-4.8429e-8,-0.0082886,-1.0803e-4
24.748,142.97,-754.24,-0.052856,-4.8122e-8,-0.0065502,-1.0783e-4
24.798,141.65,-756.6,-0.05592,-4.8595e-8,-0.0039501,-1.0365e-4
24.848,140.34,-758.96,-0.059045,-4.8461e-8,-0.0015232,-1.0218e-4
24.898,139.02,-761.32,-0.062232,-4.8313e-8,1.4018e-4,-1.0308e-4
24.948,137.7,-763.68,-0.065478,-4.8381e-8,0.0013075,-1.014e-4
24.998,136.38,-766.04,-0.068785,-4.8346e-8,0.0014973,-1.0594e-4
25.048,135.05,-768.4,-0.072151,-4.8419e-8,0.0011017,-1.0833e-4
25.098,133.72,-770.77,-0.075579,-4.8424e-8,0.0010619,-1.1244e-4
25.148,132.4,-773.13,-0.07907,-4.842e-8,9.942e-4,-1.111e-4
25.198,131.07,-775.49,-0.082625,-4.8459e-8,-1.3105e-5,-1.0837e-4
25.248,129.74,-777.85,-0.086242,-4.7708e-8,-0.002283,-1.0829e-4
25.298,128.41,-780.21,-0.089919,-4.7049e-8,-0.0046977,-1.1075e-4
25.348,127.08,-782.57,-0.093658,-4.7068e-8,-0.0057104,-1.1232e-4
25.398,125.74,-784.93,-0.097464,-4.6855e-8,-0.0051838,-1.1181e-4
25.448,124.41,-787.29,-0.10134,-4.7046e-8,-0.0043452,-1.119e-4
25.498,123.07,-789.66,-0.10528,-4.6785e-8,-0.003146,-1.119e-4
25.548,121.74,-792.02,-0.10929,-4.6655e-8,-0.0011729,-1.0672e-4
25.598,120.4,-794.38,-0.11337,-4.6114e-8,2.9499e-4,-1.0725e-4
25.648,119.06,-796.74,-0.11752,-4.6145e-8,2.2547e-5,-1.0615e-4
25.698,117.72,-799.11,-0.12173,-4.6458e-8,-0.0010224,-1.06e-4
25.748,116.38,-801.47,-0.12601,-4.612e-8,-0.0025752,-1.0325e-4
25.798,115.04,-803.84,-0.13034,-4.6527e-8,-0.0045984,-1.0428e-4
25.848,113.69,-806.2,-0.13474,-4.5999e-8,-0.0061527,-1.0672e-4
25.898,112.34,-808.57,-0.13919,-4.6113e-8,-0.0072337,-1.0267e-4
25.948,110.99,-810.94,-0.14372,-4.6006e-8,-0.0077095,-1.0409e-4
25.998,109.64,-813.31,-0.1483,-4.6045e-8,-0.0075133,-1.0368e-4
26.048,108.28,-815.68,-0.15295,-4.6417e-8,-0.0059762,-1.0503e-4
26.098,106.92,-818.05,-0.15767,-4.6659e-8,-0.0032209,-1.0962e-4
26.148,105.56,-820.42,-0.16247,-4.6595e-8,-9.3986e-5,-1.0317e-4
26.198,104.2,-822.8,-0.16733,-4.6788e-8,0.0035343,-1.0124e-4
26.248,102.84,-825.17,-0.17227,-4.6687e-8,0.007502,-1.0199e-4
26.298,101.48,-827.55,-0.17728,-4.5732e-8,0.011127,-1.045e-4
26.348,100.12,-829.93,-0.18238,-4.5603e-8,0.012694,-1.066e-4
26.398,98.763,-832.31,-0.18754,-4.5661e-8,0.012543,-1.0714e-4
26.448,97.405,-834.69,-0.19278,-4.5698e-8,0.011014,-1.0187e-4
26.498,96.049,-837.07,-0.19809,-4.5479e-8,0.0078007,-1.0462e-4
26.548,94.695,-839.45,-0.20348,-4.5065e-8,0.0039093,-1.0431e-4
26.598,93.343,-841.83,-0.20893,-4.5374e-8,2.8365e-4,-1.0846e-4
26.648,91.993,-844.21,-0.21445,-4.4577e-8,-0.0030486,-1.0703e-4
26.698,90.644,-846.59,-0.22005,-4.5192e-8,-0.0058093,-1.0701e-4
26.748,89.297,-848.98,-0.22572,-4.4729e-8,-0.0080355,-1.033e-4
26.798,87.951,-851.36,-0.23145,-4.53e-8,-0.0098491,-1.0475e-4
26.848,86.604,-853.74,-0.23725,-4.5423e-8,-0.010587,-1.05e-4
26.898,85.255,-856.13,-0.24312,-4.544e-8,-0.010325,-1.0949e-4
26.948,83.906,-858.51,-0.24905,-4.5382e-8,-0.0092082,-1.165e-4
26.998,82.555,-860.9,-0.25504,-4.5499e-8,-0.0070305,-1.1767e-4
27.048,81.201,-863.28,-0.26111,-4.5405e-8,-0.0035532,-1.2498e-4
27.098,79.847,-865.67,-0.26724,-4.5213e-8,9.4572e-4,-1.2874e-4
27.148,78.491,-868.06,-0.27345,-4.4093e-8,0.0050631,-1.2787e-4
27.198,77.135,-870.45,-0.27974,-4.4597e-8,0.0083997,-1.2379e-4
27.248,75.778,-872.85,-0.28611,-4.4954e-8,0.011015,-1.2276e-4
27.298,74.422,-875.24,-0.29255,-4.4561e-8,0.012421,-1.2179e-4
27.348,73.067,-877.63,-0.29908,-4.4496e-8,0.013193,-1.1934e-4
27.398,71.714,-880.03,-0.30569,-4.4443e-8,0.01256,-1.243e-4
27.448,70.363,-882.42,-0.31238,-4.389e-8,0.010239,-1.2233e-4
27.498,69.015,-884.82,-0.31915,-4.4225e-8,0.0067525,-1.1608e-4
27.548,67.669,-887.21,-0.32599,-4.3818e-8,0.0025195,-1.1604e-4
27.598,66.326,-889.61,-0.33292,-4.3604e-8,-0.0022019,-1.1676e-4
27.648,64.984,-892,-0.33991,-4.4234e-8,-0.0070315,-1.1633e-4
27.698,63.642,-894.4,-0.34698,-4.4992e-8,-0.011598,-1.1437e-4
27.748,62.3,-896.79,-0.35411,-4.6075e-8,-0.014296,-1.1429e-4
27.798,60.958,-899.19,-0.36131,-4.6094e-8,-0.014148,-1.1635e-4
27.848,59.616,-901.58,-0.36859,-4.5582e-8,-0.011759,-1.1957e-4
27.898,58.273,-903.98,-0.37595,-4.5523e-8,-0.008176,-1.2378e-4
27.948,56.929,-906.38,-0.38339,-4.599e-8,-0.0049125,-1.2308e-4
27.998,55.582,-908.78,-0.39089,-4.589e-8,-0.0018905,-1.2358e-4
28.048,54.233,-911.18,-0.39847,-4.5894e-8,0.0011739,-1.1993e-4
28.098,52.882,-913.58,-0.40612,-4.542e-8,0.0030265,-1.183e-4
28.148,51.528,-915.98,-0.41383,-4.5492e-8,0.0031403,-1.1847e-4
28.198,50.172,-918.38,-0.42161,-4.5553e-8,0.0026614,-1.2287e-4
28.248,48.814,-920.79,-0.42946,-4.5558e-8,0.002903,-1.2386e-4
28.298,47.456,-923.19,-0.43739,-4.5671e-8,0.0032291,-1.2112e-4
28.348,46.097,-925.6,-0.4454,-4.5726e-8,0.0029838,-1.2498e-4
28.398,44.739,-928.01,-0.45348,-4.5723e-8,0.002888,-1.2426e-4
28.448,43.381,-930.42,-0.46165,-4.5794e-8,0.0026678,-1.2381e-4
28.498,42.024,-932.83,-0.4699,-4.582e-8,0.0024325,-1.1839e-4
28.548,40.667,-935.24,-0.47823,-4.601e-8,0.003002,-1.1397e-4
28.598,39.313,-937.65,-0.48666,-4.6074e-8,0.0048805,-1.1405e-4
28.648,37.961,-940.06,-0.49518,-4.5813e-8,0.0069805,-1.184e-4
28.698,36.612,-942.48,-0.5038,-4.5688e-8,0.0088109,-1.1711e-4
28.748,35.266,-944.89,-0.51252,-4.555e-8,0.0098871,-1.2152e-4
28.798,33.923,-947.3,-0.52133,-4.5564e-8,0.010054,-1.1693e-4
28.848,32.583,-949.71,-0.53023,-4.577e-8,0.0085695,-1.2031e-4
28.898,31.245,-952.13,-0.53921,-4.5435e-8,0.0052733,-1.2417e-4
28.948,29.91,-954.54,-0.54827,-4.5349e-8,7.1558e-4,-1.1946e-4
28.998,28.575,-956.95,-0.55739,-4.5766e-8,-0.0040156,-1.1954e-4
29.048,27.242,-959.36,-0.56659,-4.5503e-8,-0.0066698,-1.1561e-4
29.098,25.911,-961.77,-0.57587,-4.5084e-8,-0.0076545,-1.1517e-4
29.148,24.581,-964.18,-0.58524,-4.5172e-8,-0.0070029,-1.185e-4
29.198,23.252,-966.59,-0.59469,-4.5305e-8,-0.0046931,-1.2172e-4
29.248,21.925,-969,-0.60423,-4.4824e-8,-0.0014525,-1.2433e-4
29.298,20.599,-971.41,-0.61386,-4.4475e-8,0.0021003,-1.2384e-4
29.348,19.273,-973.82,-0.62357,-4.4662e-8,0.0047678,-1.1978e-4
29.398,17.948,-976.23,-0.63337,-4.4971e-8,0.006788,-1.1829e-4
29.448,16.623,-978.64,-0.64324,-4.4397e-8,0.008353,-1.1899e-4
29.498,15.3,-981.05,-0.6532,-4.4325e-8,0.0084972,-1.2195e-4
29.548,13.977,-983.46,-0.66323,-4.4214e-8,0.0070883,-1.2767e-4
29.598,12.655,-985.87,-0.67334,-4.5141e-8,0.0040959,-1.2873e-4
29.648,11.333,-988.28,-0.68351,-4.501e-8,2.5991e-5,-1.329e-4
29.698,10.012,-990.68,-0.69375,-4.5922e-8,-0.0038633,-1.2896e-4
29.748,8.6909,-993.09,-0.70406,-4.6422e-8,-0.0071731,-1.3166e-4
29.798,7.3699,-995.49,-0.71444,-4.6875e-8,-0.0091383,-1.2994e-4
29.848,6.0487,-997.9,-0.72489,-4.6854e-8,-0.010351,-1.2664e-4
29.898,4.7263,-1000.3,-0.73541,-4.6988e-8,-0.010961,-1.2465e-4
29.948,3.4026,-1002.7,-0.74601,-4.7364e-8,-0.0093257,-1.2659e-4
29.998,2.0779,-1005.1,-0.75668,-4.7873e-8,-0.0064599,-1.3016e-4
30.048,0.75152,-1007.5,-0.76743,-4.7381e-8,-0.0039604,-1.2713e-4
